[
  {
    "name": "Nuit Électro au Parc de Bourran",
    "date": "2025-07-15T22:00:00Z",
    "description": "Une soirée électro envoûtante avec les meilleurs DJs de la région. Ambiance festive, light show spectaculaire et dancefloor dynamique.",
    "pricing": 1500,
    "location": {
      "address": "Parc de Bourran",
      "city": "Rodez",
      "postalCode": "12000",
      "country": "France",
      "coordinates": { "lat": 44.3610, "lng": 2.5680 }
    },
    "website": "https://rodez-events.fr/electro",
    "categories": ["CONCERT", "SOIREE", "SPECTACLE"],
    "media": [
      { "url": "https://picsum.photos/400?random=47", "type": "image/jpeg" },
      { "url": "https://picsum.photos/400?random=123", "type": "image/jpeg" }
    ]
  },
  {
    "name": "Fêtes de Printemps à Villefranche-de-Rouergue",
    "date": "2025-08-10T17:00:00Z",
    "description": "Trois jours de festivités avec parades costumées, musique traditionnelle, dégustations culinaires régionales et animations famille.",
    "pricing": 0,
    "location": {
      "address": "Place Principale, Villefranche-de-Rouergue",
      "city": "Villefranche-de-Rouergue",
      "postalCode": "12200",
      "country": "France",
      "coordinates": { "lat": 44.4150, "lng": 2.0420 }
    },
    "categories": ["FESTIVAL", "FETELOCALE", "SPECTACLE"],
    "media": [
      { "url": "https://picsum.photos/400?random=234", "type": "image/jpeg" }
    ]
  },
  {
    "name": "Trail des Gorges du Tarn",
    "date": "2025-06-22T07:00:00Z",
    "description": "Course de trail nature de 15km à travers les magnifiques gorges du Tarn. Départ du village de Sainte-Énimie, parcours technique mais accessible.",
    "pricing": 1800,
    "location": {
      "address": "Départ Village Sainte-Énimie",
      "city": "Sainte-Énimie",
      "postalCode": "48210",
      "country": "France",
      "coordinates": { "lat": 44.2380, "lng": 3.2890 }
    },
    "categories": ["TRAIL", "SPORT", "NATURE"],
    "media": [
      { "url": "https://picsum.photos/400?random=345", "type": "image/jpeg" }
    ]
  },
  {
    "name": "Masterclass Cuisine Moderne avec Chef Rémi Cuisant",
    "date": "2025-07-20T11:00:00Z",
    "description": "Apprenez les techniques de haute cuisine avec un chef primé. Élaboration de 3 plats sophistiqués, dégustation et conseils professionnels.",
    "pricing": 7500,
    "location": {
      "address": "Espace Gastronomique du Bourg",
      "city": "Rodez",
      "postalCode": "12000",
      "country": "France",
      "coordinates": { "lat": 44.3480, "lng": 2.5900 }
    },
    "categories": ["COURSDECUISINE", "DEGUSTATION", "CONFERENCE"],
    "media": [
      { "url": "https://picsum.photos/400?random=456", "type": "image/jpeg" }
    ]
  },
  {
    "name": "Marathon des Jeux Vidéo Retro",
    "date": "2025-06-30T14:00:00Z",
    "description": "24h non-stop de jeux vidéo rétro ! Tournois de Pac-Man, Street Fighter II, Mario Kart et bien d'autres. Snacks gratuits, animations et prix.",
    "pricing": 2000,
    "location": {
      "address": "Centre Culturel Souillac",
      "city": "Rodez",
      "postalCode": "12000",
      "country": "France",
      "coordinates": { "lat": 44.3280, "lng": 2.5650 }
    },
    "categories": ["JEUXVIDEO", "TOURNOIJEUXVIDEO", "JEUX"],
    "media": [
      { "url": "https://picsum.photos/400?random=567", "type": "image/jpeg" }
    ]
  },
  {
    "name": "Exposition Photo 'Regards sur le Rouergue'",
    "date": "2025-09-15T09:00:00Z",
    "description": "50 photographies inédites capturant la beauté des paysages aveyronnais. Exposition interactive avec rencontres avec les photographes tous les week-ends.",
    "pricing": 500,
    "location": {
      "address": "Galerie Moderne du Centre",
      "city": "Rodez",
      "postalCode": "12000",
      "country": "France",
      "coordinates": { "lat": 44.3575, "lng": 2.5820 }
    },
    "website": "https://galerie-rodez.fr",
    "categories": ["EXPOSITION", "PHOTOGRAPHIE", "ART"],
    "media": [
      { "url": "https://picsum.photos/400?random=89", "type": "image/jpeg" },
      { "url": "https://picsum.photos/400?random=234", "type": "image/jpeg" }
    ]
  },
  {
    "name": "Retraite Yoga Chakra Équilibré",
    "date": "2025-07-28T06:00:00Z",
    "description": "Week-end de détente complète avec yoga matinal, méditation guidée, ateliers de respiration et débriefing harmonieux. Hébergement et repas bio inclus.",
    "pricing": 25000,
    "location": {
      "address": "Gîtes de la Vallée Verte",
      "city": "Rodez",
      "postalCode": "12000",
      "country": "France",
      "coordinates": { "lat": 44.3320, "lng": 2.5500 }
    },
    "categories": ["YOGA", "BIENETRE", "MEDITATION"],
    "media": [
      { "url": "https://picsum.photos/400?random=312", "type": "image/jpeg" }
    ]
  },
  {
    "name": "Compétition Ligue Esport France - Région Occitanie",
    "date": "2025-08-25T15:00:00Z",
    "description": "Phases finales régionales de Valorant et League of Legends. Équipes qualifiées, streamer en direct, atmosphère professionnelle et prize pool important.",
    "pricing": 3000,
    "location": {
      "address": "Salle des Sports Pont-Neuf",
      "city": "Rodez",
      "postalCode": "12000",
      "country": "France",
      "coordinates": { "lat": 44.3400, "lng": 2.6050 }
    },
    "categories": ["ESPORT", "COMPETITION", "TECHNOLOGIE"],
    "media": [
      { "url": "https://picsum.photos/400?random=423", "type": "image/jpeg" }
    ]
  },
  {
    "name": "Brocante Géante du Centre Commercial",
    "date": "2025-08-03T08:00:00Z",
    "description": "500+ exposants ! Meubles vintage, vêtements d'époque, livres anciens, objets de collection. Parking gratuit, restauration sur place, accès PMR.",
    "pricing": 0,
    "location": {
      "address": "Parking Centre Commercial Les Fleurs",
      "city": "Rodez",
      "postalCode": "12000",
      "country": "France",
      "coordinates": { "lat": 44.3680, "lng": 2.5920 }
    },
    "categories": ["BROCANTE", "MARCHE", "VIDEGRENIER"],
    "media": [
      { "url": "https://picsum.photos/400?random=534", "type": "image/jpeg" }
    ]
  },
  {
    "name": "Conférence Développement Personnel 'Réinventer Sa Vie'",
    "date": "2025-06-25T19:30:00Z",
    "description": "Avec le coach international Marc Lemoine. Techniques de transformation personnelle, Q&A directe, livret de 50 exercices pratiques offert.",
    "pricing": 3500,
    "location": {
      "address": "Auditorium Le Grand Théâtre",
      "city": "Rodez",
      "postalCode": "12000",
      "country": "France",
      "coordinates": { "lat": 44.3445, "lng": 2.5750 }
    },
    "categories": ["CONFERENCE", "DEVELOPPEMENTPERSONNEL", "FORMATION"],
    "media": [
      { "url": "https://picsum.photos/400?random=145", "type": "image/jpeg" }
    ]
  }
]
